{"type":"FeatureCollection","features":[{"geometry": {"type": "Point", "coordinates": [-75.21351003543592, 40.052241051305806]}, "type": "Feature", "id": 0, "properties": {"NAME": "Wissahickon Valley Park", "DISTRICT": 4, "ZIPCODE": "19128"}},{"geometry": {"type": "Point", "coordinates": [-75.2070108986734, 39.98930275869718]}, "type": "Feature", "id": 1, "properties": {"NAME": "West Fairmount Park", "DISTRICT": 5, "ZIPCODE": "19131"}},{"geometry": {"type": "Point", "coordinates": [-75.04695714415429, 40.06770279700218]}, "type": "Feature", "id": 2, "properties": {"NAME": "Pennypack Creek Park", "DISTRICT": 1, "ZIPCODE": "19152"}},{"geometry": {"type": "Point", "coordinates": [-75.25753913378627, 39.96271392547754]}, "type": "Feature", "id": 3, "properties": {"NAME": "Cobbs Creek Park", "DISTRICT": 8}},{"geometry": {"type": "Point", "coordinates": [-75.1921347467435, 39.984015070807416]}, "type": "Feature", "id": 4, "properties": {"NAME": "East Fairmount Park", "DISTRICT": 5, "ZIPCODE": "19121"}},{"geometry": {"type": "Point", "coordinates": [-75.10782097450826, 40.02631582683638]}, "type": "Feature", "id": 5, "properties": {"NAME": "Tacony Creek Park", "DISTRICT": 3, "ZIPCODE": "19120"}},{"geometry": {"type": "Point", "coordinates": [-75.01022558375493, 40.031051166637596]}, "type": "Feature", "id": 6, "properties": {"ADDRESS": "8201 STATE RD", "NAME": "Pennypack on the Delaware", "DISTRICT": 1, "ZIPCODE": "19136"}},{"geometry": {"type": "Point", "coordinates": [-75.18107508973672, 39.90141607348737]}, "type": "Feature", "id": 7, "properties": {"ADDRESS": "3500 S BROAD ST", "NAME": "Franklin D. Roosevelt Park", "DISTRICT": 7, "ZIPCODE": "19145"}},{"geometry": {"type": "Point", "coordinates": [-75.25932832630996, 39.97926681765563]}, "type": "Feature", "id": 8, "properties": {"ADDRESS": "6600 SHERWOOD RD", "NAME": "Morris Park", "DISTRICT": 8, "ZIPCODE": "19151"}},{"geometry": {"type": "Point", "coordinates": [-74.99079543491888, 40.086632443918745]}, "type": "Feature", "id": 9, "properties": {"ADDRESS": "11000 ACADEMY RD", "NAME": "Walton Run", "DISTRICT": 1, "ZIPCODE": "19154"}},{"geometry": {"type": "Point", "coordinates": [-75.14367727236433, 40.01684011300395]}, "type": "Feature", "id": 10, "properties": {"ADDRESS": "1101 W HUNTING PARK AVE", "NAME": "Hunting Park", "DISTRICT": 3, "ZIPCODE": "19140"}},{"geometry": {"type": "Point", "coordinates": [-74.96850176008549, 40.09835593025186]}, "type": "Feature", "id": 11, "properties": {"ADDRESS": "3601 ACADEMY RD", "NAME": "Poquessing Creek Park", "DISTRICT": 1, "ZIPCODE": "19154"}},{"geometry": {"type": "Point", "coordinates": [-74.98975470793752, 40.05463561938078]}, "type": "Feature", "id": 12, "properties": {"ADDRESS": "4800 GRANT AVE", "NAME": "Fluehr Park", "DISTRICT": 1, "ZIPCODE": "19114"}},{"geometry": {"type": "Point", "coordinates": [-75.09194193428365, 40.068753698205214]}, "type": "Feature", "id": 13, "properties": {"ADDRESS": "7370 CENTRAL AVE", "NAME": "Burholme Park", "DISTRICT": 1, "ZIPCODE": "19111"}},{"geometry": {"type": "Point", "coordinates": [-75.1556670943342, 40.03404980793954]}, "type": "Feature", "id": 14, "properties": {"ADDRESS": "432-60 E WISTER ST", "NAME": "Wister's Woods Park", "DISTRICT": 4, "ZIPCODE": "19141"}},{"geometry": {"type": "Point", "coordinates": [-75.01640356408281, 40.06479940515385]}, "type": "Feature", "id": 15, "properties": {"ADDRESS": "2855 WILLITS RD", "NAME": "Wooden Bridge Run", "DISTRICT": 1, "ZIPCODE": "19114"}},{"geometry": {"type": "Point", "coordinates": [-75.21145930648281, 39.932202695497054]}, "type": "Feature", "id": 16, "properties": {"ADDRESS": "5400 LINDBERGH BLV", "NAME": "Bartram's Garden", "DISTRICT": 8, "ZIPCODE": "19143"}},{"geometry": {"type": "Point", "coordinates": [-75.18963619176616, 40.03484029317508]}, "type": "Feature", "id": 17, "properties": {"ADDRESS": "6331 WISSAHICKON AVE", "NAME": "Clifford Park", "DISTRICT": 4, "ZIPCODE": "19144"}},{"geometry": {"type": "Point", "coordinates": [-75.20104785327936, 40.046040294067275]}, "type": "Feature", "id": 18, "properties": {"ADDRESS": "7045-99 GREENE ST", "NAME": "Carpenter's Woods Park", "DISTRICT": 4, "ZIPCODE": "19119"}},{"geometry": {"type": "Point", "coordinates": [-75.16860327751189, 40.01865683262053]}, "type": "Feature", "id": 19, "properties": {"ADDRESS": "4600 MORRIS ST", "NAME": "Fernhill Park", "DISTRICT": 4, "ZIPCODE": "19144"}},{"geometry": {"type": "Point", "coordinates": [-75.2377040850766, 40.03442629761955]}, "type": "Feature", "id": 20, "properties": {"ADDRESS": "4500 MAIN ST", "NAME": "Manayunk Canal", "DISTRICT": 4, "ZIPCODE": "19127"}},{"geometry": {"type": "Point", "coordinates": [-74.964548487067, 40.11401299111266]}, "type": "Feature", "id": 21, "properties": {"ADDRESS": "3125 MECHANICSVILLE RD", "NAME": "Poquessing Creek Park", "DISTRICT": 1, "ZIPCODE": "19154"}},{"geometry": {"type": "Point", "coordinates": [-75.28164177108593, 39.97759514268168]}, "type": "Feature", "id": 22, "properties": {"ADDRESS": "7800 CITY AVE", "NAME": "Carroll Park Cobbs Creek", "DISTRICT": 8, "ZIPCODE": "19151"}},{"geometry": {"type": "Point", "coordinates": [-75.16318704669385, 40.05364661150279]}, "type": "Feature", "id": 23, "properties": {"ADDRESS": "6101 ARDLEIGH ST", "NAME": "Awbury Park", "DISTRICT": 4, "ZIPCODE": "19138"}},{"geometry": {"type": "Point", "coordinates": [-75.02212207121936, 40.05734229835565]}, "type": "Feature", "id": 24, "properties": {"ADDRESS": "3065 HOLME AVE", "NAME": "Holme Crispin Park", "DISTRICT": 1, "ZIPCODE": "19136"}},{"geometry": {"type": "Point", "coordinates": [-75.18060159079252, 39.95596233930792]}, "type": "Feature", "id": 25, "properties": {"ADDRESS": "300 S 26TH ST", "NAME": "Schuylkill River Park", "DISTRICT": 5, "ZIPCODE": "19103"}},{"geometry": {"type": "Point", "coordinates": [-75.13174260387247, 40.0433523594902]}, "type": "Feature", "id": 26, "properties": {"ADDRESS": "6000 N 05TH ST", "NAME": "Fisher Park", "DISTRICT": 3, "ZIPCODE": "19120"}},{"geometry": {"type": "Point", "coordinates": [-75.04343089717361, 40.02150903108665]}, "type": "Feature", "id": 27, "properties": {"ADDRESS": "6501-6951 KEYSTONE ST", "NAME": "Disston Park", "DISTRICT": 2, "ZIPCODE": "19135"}},{"geometry": {"type": "Point", "coordinates": [-74.99415375757542, 40.12874806931523]}, "type": "Feature", "id": 28, "properties": {"ADDRESS": "1217 STEVENS RD", "NAME": "Poquessing Creek Park", "DISTRICT": 1, "ZIPCODE": "19116"}},{"geometry": {"type": "Point", "coordinates": [-74.96923006737303, 40.103676569742845]}, "type": "Feature", "id": 29, "properties": {"ADDRESS": "3102 MECHANICSVILLE RD", "NAME": "Junod Park", "DISTRICT": 1, "ZIPCODE": "19154"}},{"geometry": {"type": "Point", "coordinates": [-75.25138766392114, 39.90528974294348]}, "type": "Feature", "id": 30, "properties": {"ADDRESS": "80TH ST & MARS PL", "NAME": "Eastwick Regional Park", "DISTRICT": 8, "ZIPCODE": "19153"}},{"geometry": {"type": "Point", "coordinates": [-74.96825195998827, 40.078447399008994]}, "type": "Feature", "id": 31, "properties": {"ADDRESS": "4341 WHITING RD", "NAME": "Poquessing Creek Park", "DISTRICT": 1, "ZIPCODE": "19154"}},{"geometry": {"type": "Point", "coordinates": [-75.17937914347057, 39.99981859181433]}, "type": "Feature", "id": 32, "properties": {"ADDRESS": "3001 W LEHIGH AVE", "NAME": "29th & Chalmers Park", "DISTRICT": 6, "ZIPCODE": "19132"}},{"geometry": {"type": "Point", "coordinates": [-75.22239683960785, 40.03600117834915]}, "type": "Feature", "id": 33, "properties": {"ADDRESS": "6300 RIDGE AVE", "NAME": "Gorgas Park", "DISTRICT": 4, "ZIPCODE": "19128"}},{"geometry": {"type": "Point", "coordinates": [-75.17136529013266, 39.915476427339044]}, "type": "Feature", "id": 34, "properties": {"ADDRESS": "2700 S BROAD ST", "NAME": "Marconi Plaza", "DISTRICT": 7, "ZIPCODE": "19148"}},{"geometry": {"type": "Point", "coordinates": [-75.21250235080899, 39.87571421655823]}, "type": "Feature", "id": 35, "properties": {"ADDRESS": "4800 FORT MIFFLIN RD", "NAME": "Fort Mifflin", "DISTRICT": 8, "ZIPCODE": "19153"}},{"geometry": {"type": "Point", "coordinates": [-74.98228485984616, 40.060262859286276]}, "type": "Feature", "id": 36, "properties": {"ADDRESS": "9900-99 HEGERMAN ST", "NAME": "Poquessing Creek Park", "DISTRICT": 1, "ZIPCODE": "19114"}},{"geometry": {"type": "Point", "coordinates": [-75.20503998793878, 40.070971800877345]}, "type": "Feature", "id": 37, "properties": {"ADDRESS": "200 W HARTWELL LN", "NAME": "Pastorius Park", "DISTRICT": 4, "ZIPCODE": "19118"}},{"geometry": {"type": "Point", "coordinates": [-74.97316191957945, 40.07289776350141]}, "type": "Feature", "id": 38, "properties": {"ADDRESS": "130 DIMARCO DR", "NAME": "Poquessing Creek Park", "DISTRICT": 1, "ZIPCODE": "19154"}},{"geometry": {"type": "Point", "coordinates": [-75.20168226968416, 39.94182346203031]}, "type": "Feature", "id": 39, "properties": {"ADDRESS": "1101 S 34TH ST", "NAME": "Gray's Ferry Crescent", "DISTRICT": 7, "ZIPCODE": "19146"}},{"geometry": {"type": "Point", "coordinates": [-75.17694683165422, 39.96294598126128]}, "type": "Feature", "id": 40, "properties": {"ADDRESS": "BENJ FRANKLIN PKY", "NAME": "Benjamin Franklin Parkway", "DISTRICT": 5, "ZIPCODE": "19130"}},{"geometry": {"type": "Point", "coordinates": [-74.98112070935997, 40.06694356882542]}, "type": "Feature", "id": 41, "properties": {"ADDRESS": "10501 KNIGHTS RD", "NAME": "Poquessing Creek Park", "DISTRICT": 1, "ZIPCODE": "19154"}},{"geometry": {"type": "Point", "coordinates": [-75.15033499140337, 40.033065671854004]}, "type": "Feature", "id": 42, "properties": {"ADDRESS": "5300 N 16TH ST", "NAME": "Wakefield Park", "DISTRICT": 4, "ZIPCODE": "19141"}},{"geometry": {"type": "Point", "coordinates": [-75.1505489283695, 39.957123029040034]}, "type": "Feature", "id": 43, "properties": {"ADDRESS": "VINE STREET EXP", "NAME": "Vine Street Park", "DISTRICT": 5, "ZIPCODE": "19103"}},{"geometry": {"type": "Point", "coordinates": [-75.20979160041489, 39.947766354960635]}, "type": "Feature", "id": 44, "properties": {"ADDRESS": "4301 CHESTER AVE", "NAME": "Clarence H Clark Park", "DISTRICT": 8, "ZIPCODE": "19104"}},{"geometry": {"type": "Point", "coordinates": [-75.19000686426403, 40.02966429483886]}, "type": "Feature", "id": 45, "properties": {"ADDRESS": "5800 WISSAHICKON AVE", "NAME": "Rittenhouse Town", "DISTRICT": 4, "ZIPCODE": "19144"}},{"geometry": {"type": "Point", "coordinates": [-75.23715357241424, 39.906258392639295]}, "type": "Feature", "id": 46, "properties": {"ADDRESS": "7401 LINDBERGH BLV", "NAME": "Eastwick Park", "DISTRICT": 8, "ZIPCODE": "19153"}},{"geometry": {"type": "Point", "coordinates": [-75.23159552756641, 40.034670243919344]}, "type": "Feature", "id": 47, "properties": {"ADDRESS": "4849 SMICK ST", "NAME": "Germany Hill", "DISTRICT": 4, "ZIPCODE": "19128"}},{"geometry": {"type": "Point", "coordinates": [-75.16575119896397, 39.99444101488964]}, "type": "Feature", "id": 48, "properties": {"ADDRESS": "1950 W LEHIGH AVE", "NAME": "Reyburn Park", "DISTRICT": 6, "ZIPCODE": "19132"}},{"geometry": {"type": "Point", "coordinates": [-75.1766270434913, 40.03574653947536]}, "type": "Feature", "id": 49, "properties": {"ADDRESS": "5710-18 GERMANTOWN AVE", "NAME": "Vernon Park", "DISTRICT": 4, "ZIPCODE": "19144"}},{"geometry": {"type": "Point", "coordinates": [-75.1286162641462, 39.96616604129337]}, "type": "Feature", "id": 50, "properties": {"ADDRESS": "1201-1301 BEACH ST", "NAME": "Penn Treaty Park", "DISTRICT": 2, "ZIPCODE": "19125"}},{"geometry": {"type": "Point", "coordinates": [-75.14551340109205, 40.02050692254537]}, "type": "Feature", "id": 51, "properties": {"ADDRESS": "4101 OLD YORK RD", "NAME": "Wingohocking Park", "DISTRICT": 3, "ZIPCODE": "19140"}},{"geometry": {"type": "Point", "coordinates": [-75.14967655766212, 40.03997792270295]}, "type": "Feature", "id": 52, "properties": {"ADDRESS": "5641 OGONTZ AVE", "NAME": "Kemble Park", "DISTRICT": 4, "ZIPCODE": "19141"}},{"geometry": {"type": "Point", "coordinates": [-75.05402471925152, 40.0501172266231]}, "type": "Feature", "id": 53, "properties": {"ADDRESS": "2400 FAUNCE ST", "NAME": "Bradford Park", "DISTRICT": 1, "ZIPCODE": "19152"}},{"geometry": {"type": "Point", "coordinates": [-75.17853200483809, 39.96379061521388]}, "type": "Feature", "id": 54, "properties": {"ADDRESS": "2500 BENJ FRANKLIN PKY", "NAME": "Eakins Oval", "DISTRICT": 5, "ZIPCODE": "19130"}},{"geometry": {"type": "Point", "coordinates": [-75.17188945105157, 39.949478055701704]}, "type": "Feature", "id": 55, "properties": {"ADDRESS": "1800 WALNUT ST", "NAME": "Rittenhouse Square", "DISTRICT": 5, "ZIPCODE": "19103"}},{"geometry": {"type": "Point", "coordinates": [-75.16103183001412, 40.02569870872727]}, "type": "Feature", "id": 56, "properties": {"ADDRESS": "4650 GERMANTOWN AVE", "NAME": "Loudoun Park", "DISTRICT": 4, "ZIPCODE": "19144"}},{"geometry": {"type": "Point", "coordinates": [-75.23773509098555, 39.91374856633301]}, "type": "Feature", "id": 57, "properties": {"ADDRESS": "7101 DICKS AVE", "NAME": "Elmwood Park", "DISTRICT": 8, "ZIPCODE": "19142"}},{"geometry": {"type": "Point", "coordinates": [-75.1523076313938, 39.947034627450954]}, "type": "Feature", "id": 58, "properties": {"ADDRESS": "600 WALNUT ST", "NAME": "Washington Square", "DISTRICT": 5, "ZIPCODE": "19106"}},{"geometry": {"type": "Point", "coordinates": [-75.15043214803696, 39.95566648738538]}, "type": "Feature", "id": 59, "properties": {"ADDRESS": "200 N 06TH ST", "NAME": "Franklin Square", "DISTRICT": 5, "ZIPCODE": "19106"}},{"geometry": {"type": "Point", "coordinates": [-75.1346935466369, 39.982689159192574]}, "type": "Feature", "id": 60, "properties": {"ADDRESS": "2100-60 N HOWARD ST", "NAME": "Norris Square", "DISTRICT": 6, "ZIPCODE": "19122"}},{"geometry": {"type": "Point", "coordinates": [-75.118865662151, 39.99480428061081]}, "type": "Feature", "id": 61, "properties": {"ADDRESS": "601 E INDIANA AVE", "NAME": "McPherson Square", "DISTRICT": 3, "ZIPCODE": "19134"}},{"geometry": {"type": "Point", "coordinates": [-75.22538620702295, 39.95265590717789]}, "type": "Feature", "id": 62, "properties": {"ADDRESS": "5100 PINE ST", "NAME": "Malcolm X Memorial Park", "DISTRICT": 8, "ZIPCODE": "19143"}},{"geometry": {"type": "Point", "coordinates": [-75.17718720931707, 40.0517618660978]}, "type": "Feature", "id": 63, "properties": {"ADDRESS": "501 E JOHNSON ST", "NAME": "Cliveden Park", "DISTRICT": 4, "ZIPCODE": "19119"}},{"geometry": {"type": "Point", "coordinates": [-75.23734253346396, 40.06781060477418]}, "type": "Feature", "id": 64, "properties": {"ADDRESS": "8730 OLD LINE RD", "NAME": "Old Line Park", "DISTRICT": 4, "ZIPCODE": "19128"}},{"geometry": {"type": "Point", "coordinates": [-75.23672452304363, 39.97102067973348]}, "type": "Feature", "id": 65, "properties": {"ADDRESS": "5801 W GIRARD AVE", "NAME": "Carroll Park", "DISTRICT": 8, "ZIPCODE": "19131"}},{"geometry": {"type": "Point", "coordinates": [-75.14284610949325, 39.97349820402691]}, "type": "Feature", "id": 66, "properties": {"ADDRESS": "1440R-44 N 04TH ST", "NAME": "Benson Park", "DISTRICT": 2, "ZIPCODE": "19122"}},{"geometry": {"type": "Point", "coordinates": [-75.14383549974019, 39.95098459991166]}, "type": "Feature", "id": 67, "properties": {"ADDRESS": "201-17 MARKET ST", "NAME": "Christ Church Park", "DISTRICT": 5, "ZIPCODE": "19106"}},{"geometry": {"type": "Point", "coordinates": [-75.14783170178261, 39.94419748601926]}, "type": "Feature", "id": 68, "properties": {"ADDRESS": "311-19 DELANCEY ST", "NAME": "Delancey Park", "DISTRICT": 5, "ZIPCODE": "19106"}},{"geometry": {"type": "Point", "coordinates": [-75.14627037835443, 39.98848994537721]}, "type": "Feature", "id": 69, "properties": {"ADDRESS": "2401-13 GERMANTOWN AVE", "NAME": "Officer Daniel Boyle Park", "DISTRICT": 6, "ZIPCODE": "19133"}},{"geometry": {"type": "Point", "coordinates": [-75.1722655642328, 40.03429810113297]}, "type": "Feature", "id": 70, "properties": {"ADDRESS": "5501 GERMANTOWN AVE", "NAME": "Market Square", "DISTRICT": 4, "ZIPCODE": "19144"}},{"geometry": {"type": "Point", "coordinates": [-75.08542398159263, 40.07647327616453]}, "type": "Feature", "id": 71, "properties": {"ADDRESS": "7966 OXFORD AVE", "NAME": "Barnes & Loney Park", "DISTRICT": 1, "ZIPCODE": "19111"}},{"geometry": {"type": "Point", "coordinates": [-75.08309502311634, 40.01405616640283]}, "type": "Feature", "id": 72, "properties": {"ADDRESS": "4610 HEDGE ST", "NAME": "Hedge Street Park", "DISTRICT": 2, "ZIPCODE": "19124"}},{"geometry": {"type": "Point", "coordinates": [-75.17423024277238, 40.005845949306135]}, "type": "Feature", "id": 73, "properties": {"ADDRESS": "3255 N MARSTON ST", "NAME": "Etting Square", "DISTRICT": 6, "ZIPCODE": "19129"}},{"geometry": {"type": "Point", "coordinates": [-75.17931897012043, 39.940911068807466]}, "type": "Feature", "id": 74, "properties": {"ADDRESS": "923 S 22ND ST", "NAME": "Julian Abele Park", "DISTRICT": 7, "ZIPCODE": "19146"}},{"geometry": {"type": "Point", "coordinates": [-75.17775722338736, 39.931462359723234]}, "type": "Feature", "id": 75, "properties": {"ADDRESS": "1601-13 S 20TH ST", "NAME": "Ralph Brooks Park", "DISTRICT": 7, "ZIPCODE": "19145"}},{"geometry": {"type": "Point", "coordinates": [-75.1668461754815, 40.03076056488972]}, "type": "Feature", "id": 76, "properties": {"ADDRESS": "5132 GERMANTOWN AVE", "NAME": "Gilbert Stuart Park", "DISTRICT": 4, "ZIPCODE": "19144"}},{"geometry": {"type": "Point", "coordinates": [-75.15703982029726, 40.02089803644055]}, "type": "Feature", "id": 77, "properties": {"ADDRESS": "4369-71 GERMANTOWN AVE", "NAME": "Nicetown Park", "DISTRICT": 4, "ZIPCODE": "19140"}},{"geometry": {"type": "Point", "coordinates": [-75.16278253573168, 39.98532532834475]}, "type": "Feature", "id": 78, "properties": {"ADDRESS": "1736-44 DIAMOND ST", "NAME": "Diamond Park", "DISTRICT": 6, "ZIPCODE": "19121"}},{"geometry": {"type": "Point", "coordinates": [-75.19658334711927, 40.048901923004]}, "type": "Feature", "id": 79, "properties": {"ADDRESS": "7018 MC CALLUM ST", "NAME": "Wolf Park", "DISTRICT": 4, "ZIPCODE": "19119"}},{"geometry": {"type": "Point", "coordinates": [-75.15992425556463, 39.937865146634515]}, "type": "Feature", "id": 80, "properties": {"ADDRESS": "1000 S 10TH ST", "NAME": "Bardascino Park", "DISTRICT": 7, "ZIPCODE": "19147"}},{"geometry": {"type": "Point", "coordinates": [-75.14944786222291, 39.928929007882566]}, "type": "Feature", "id": 81, "properties": {"ADDRESS": "230-34 DICKINSON ST", "NAME": "Donnelly Park", "DISTRICT": 7, "ZIPCODE": "19147"}},{"geometry": {"type": "Point", "coordinates": [-75.15559125031584, 39.939250448413006]}, "type": "Feature", "id": 82, "properties": {"ADDRESS": "723 CATHARINE ST", "NAME": "Palumbo Park", "DISTRICT": 7, "ZIPCODE": "19147"}},{"geometry": {"type": "Point", "coordinates": [-75.13831671965576, 40.009076822915816]}, "type": "Feature", "id": 83, "properties": {"ADDRESS": "547 RISING SUN AVE", "NAME": "Hamilton Park", "DISTRICT": 3, "ZIPCODE": "19140"}},{"geometry": {"type": "Point", "coordinates": [-75.20251481624291, 40.07351116916135]}, "type": "Feature", "id": 84, "properties": {"ADDRESS": "8199 GERMANTOWN AVE", "NAME": "Buckley Park", "DISTRICT": 4, "ZIPCODE": "19118"}},{"geometry": {"type": "Point", "coordinates": [-75.17133617708171, 39.95848673215251]}, "type": "Feature", "id": 85, "properties": {"ADDRESS": "200 N 19TH ST", "NAME": "West Triangle", "DISTRICT": 5, "ZIPCODE": "19103"}},{"geometry": {"type": "Point", "coordinates": [-75.17447714901601, 40.02735122496874]}, "type": "Feature", "id": 86, "properties": {"ADDRESS": "5322 NEWHALL ST", "NAME": "Newhall Park", "DISTRICT": 4, "ZIPCODE": "19144"}},{"geometry": {"type": "Point", "coordinates": [-75.22995028526294, 40.02947966625703]}, "type": "Feature", "id": 87, "properties": {"ADDRESS": "4605 UMBRIA ST", "NAME": "Leverington Park", "DISTRICT": 4, "ZIPCODE": "19127"}},{"geometry": {"type": "Point", "coordinates": [-75.15688795320463, 39.932359790014566]}, "type": "Feature", "id": 88, "properties": {"ADDRESS": "732 SEARS ST", "NAME": "Paolone Park", "DISTRICT": 7, "ZIPCODE": "19147"}},{"geometry": {"type": "Point", "coordinates": [-75.14684157324123, 39.93028620008676]}, "type": "Feature", "id": 89, "properties": {"ADDRESS": "105 REED ST", "NAME": "Howard & Reed Park", "DISTRICT": 7, "ZIPCODE": "19147"}},{"geometry": {"type": "Point", "coordinates": [-75.15034558637196, 39.99973960908738]}, "type": "Feature", "id": 90, "properties": {"ADDRESS": "1240 W SEDGELY AVE", "NAME": "Daly Park", "DISTRICT": 3, "ZIPCODE": "19133"}},{"geometry": {"type": "Point", "coordinates": [-75.1464426025587, 39.936514706419075]}, "type": "Feature", "id": 91, "properties": {"ADDRESS": "839 S 02ND ST", "NAME": "Beck Park", "DISTRICT": 7, "ZIPCODE": "19147"}},{"geometry": {"type": "Point", "coordinates": [-75.17552271878878, 39.956709964907134]}, "type": "Feature", "id": 92, "properties": {"ADDRESS": "2132-34 CHERRY ST", "NAME": "Coxe Park", "DISTRICT": 5, "ZIPCODE": "19103"}},{"geometry": {"type": "Point", "coordinates": [-75.16544363541229, 40.03353368880772]}, "type": "Feature", "id": 93, "properties": {"ADDRESS": "200 E BRINGHURST ST", "NAME": "Bringhurst Park", "DISTRICT": 4, "ZIPCODE": "19144"}},{"geometry": {"type": "Point", "coordinates": [-75.17938276442909, 39.94228482552951]}, "type": "Feature", "id": 94, "properties": {"ADDRESS": "2200 CATHARINE ST", "NAME": "22nd & Catherine Park", "DISTRICT": 7, "ZIPCODE": "19146"}},{"geometry": {"type": "Point", "coordinates": [-75.21840372900068, 40.02542710786673]}, "type": "Feature", "id": 95, "properties": {"ADDRESS": "4200 BOONE ST", "NAME": "Boone Park", "DISTRICT": 4, "ZIPCODE": "19128"}},{"geometry": {"type": "Point", "coordinates": [-75.14413223839432, 39.939626424475435]}, "type": "Feature", "id": 96, "properties": {"ADDRESS": "301-999 S FRONT ST", "NAME": "I-95 Park", "DISTRICT": 5, "ZIPCODE": "19147"}},{"geometry": {"type": "Point", "coordinates": [-75.09698111131162, 39.977996220697655]}, "type": "Feature", "id": 97, "properties": {"ADDRESS": "3001 E ALLEGHENY AVE", "NAME": "Pulaski Park", "DISTRICT": 2, "ZIPCODE": "19134"}},{"geometry": {"type": "Point", "coordinates": [-75.17055929626527, 39.95813416063162]}, "type": "Feature", "id": 98, "properties": {"ADDRESS": "200 N 19TH ST", "NAME": "Logan Square", "DISTRICT": 5, "ZIPCODE": "19103"}},{"geometry": {"type": "Point", "coordinates": [-75.15147641209724, 39.93297726633862]}, "type": "Feature", "id": 99, "properties": {"ADDRESS": "405-11 MANTON ST", "NAME": "Manton Street Park", "DISTRICT": 7, "ZIPCODE": "19147"}},{"geometry": {"type": "Point", "coordinates": [-75.24602277279409, 39.90827261811634]}, "type": "Feature", "id": 100, "properties": {"ADDRESS": "7600 BUIST AVE", "NAME": "Clearview Park", "DISTRICT": 8, "ZIPCODE": "19153"}},{"geometry": {"type": "Point", "coordinates": [-75.23041095289241, 39.923237077845116]}, "type": "Feature", "id": 101, "properties": {"ADDRESS": "6401 ELMWOOD AVE", "NAME": "Connell Park", "DISTRICT": 8, "ZIPCODE": "19142"}},{"geometry": {"type": "Point", "coordinates": [-75.16337250243838, 39.95246383228056]}, "type": "Feature", "id": 102, "properties": {"ADDRESS": "1400 JOHN F KENNEDY BLV", "NAME": "Center Square", "DISTRICT": 5, "ZIPCODE": "19107"}},{"geometry": {"type": "Point", "coordinates": [-75.18774527913526, 40.01808660310753]}, "type": "Feature", "id": 103, "properties": {"ADDRESS": "3201-45 MIDVALE AVE", "NAME": "McMichael Park", "DISTRICT": 4, "ZIPCODE": "19129"}},{"geometry": {"type": "Point", "coordinates": [-75.1508666958523, 39.98953732687733]}, "type": "Feature", "id": 104, "properties": {"ADDRESS": "2400 N 11TH ST", "NAME": "Fotteral Square", "DISTRICT": 6, "ZIPCODE": "19133"}},{"geometry": {"type": "Point", "coordinates": [-75.10638976750737, 39.99926188525612]}, "type": "Feature", "id": 105, "properties": {"ADDRESS": "3455 KENSINGTON AVE", "NAME": "Harrowgate Park", "DISTRICT": 2, "ZIPCODE": "19134"}},{"geometry": {"type": "Point", "coordinates": [-75.04700076424695, 40.014255691053755]}, "type": "Feature", "id": 106, "properties": {"ADDRESS": "5202 LEVICK ST", "NAME": "Lardner's Point Park", "DISTRICT": 2, "ZIPCODE": "19135"}},{"geometry": {"type": "Point", "coordinates": [-75.15651704788718, 39.91949354764685]}, "type": "Feature", "id": 107, "properties": {"ADDRESS": "500 WOLF ST", "NAME": "Mifflin Square", "DISTRICT": 7, "ZIPCODE": "19148"}},{"geometry": {"type": "Point", "coordinates": [-75.08828314180482, 40.01698865955035]}, "type": "Feature", "id": 108, "properties": {"ADDRESS": "4600 LEIPER ST", "NAME": "Overington Park", "DISTRICT": 3, "ZIPCODE": "19124"}},{"geometry": {"type": "Point", "coordinates": [-75.18317585591461, 39.92036208830968]}, "type": "Feature", "id": 109, "properties": {"ADDRESS": "2101 SHUNK ST", "NAME": "Girard Estates Park", "DISTRICT": 7, "ZIPCODE": "19145"}},{"geometry": {"type": "Point", "coordinates": [-75.17684772352341, 39.96180170918409]}, "type": "Feature", "id": 110, "properties": {"ADDRESS": "BENJAMIN FRANKLIN PKY", "NAME": "Park Towne", "DISTRICT": 5, "ZIPCODE": "19130"}},{"geometry": {"type": "Point", "coordinates": [-75.21671789015079, 39.971258374221264]}, "type": "Feature", "id": 111, "properties": {"ADDRESS": "4700-30 LANCASTER AVE", "NAME": "Clara Muhammad Square", "DISTRICT": 8, "ZIPCODE": "19131"}},{"geometry": {"type": "Point", "coordinates": [-75.15139755156171, 40.04217172193801]}, "type": "Feature", "id": 112, "properties": {"ADDRESS": "5850 OGONTZ AVE", "NAME": "Harper's Hollow Park", "DISTRICT": 4, "ZIPCODE": "19141"}},{"geometry": {"type": "Point", "coordinates": [-74.98892508303899, 40.125044257226854]}, "type": "Feature", "id": 113, "properties": {"ADDRESS": "1300-2600 POQUESSING CRK DR", "NAME": "Poquessing Creek Park", "DISTRICT": 1, "ZIPCODE": "19116"}},{"geometry": {"type": "Point", "coordinates": [-75.15017487869044, 39.93360421763298]}, "type": "Feature", "id": 114, "properties": {"ADDRESS": "300 WASHINGTON AVE", "NAME": "Jefferson Square", "DISTRICT": 7, "ZIPCODE": "19147"}},{"geometry": {"type": "Point", "coordinates": [-75.22381718320824, 39.920109816936]}, "type": "Feature", "id": 115, "properties": {"ADDRESS": "2800 S 63RD ST", "NAME": "63rd & Lindbergh Park", "DISTRICT": 8, "ZIPCODE": "19142"}},{"geometry": {"type": "Point", "coordinates": [-75.09219552000545, 40.023290783800114]}, "type": "Feature", "id": 116, "properties": {"ADDRESS": "999 ARROTT ST", "NAME": "Northwood Park", "DISTRICT": 3, "ZIPCODE": "19124"}},{"geometry": {"type": "Point", "coordinates": [-74.98948399314214, 40.043072073022884]}, "type": "Feature", "id": 117, "properties": {"ADDRESS": "9201 N DELAWARE AVE", "NAME": "Pleasanthill Park", "DISTRICT": 1, "ZIPCODE": "19114"}},{"geometry": {"type": "Point", "coordinates": [-75.13899196407657, 39.99108273529407]}, "type": "Feature", "id": 118, "properties": {"ADDRESS": "2601-61 N LAWRENCE ST", "NAME": "Fairhill Square", "DISTRICT": 6, "ZIPCODE": "19133"}},{"geometry": {"type": "Point", "coordinates": [-75.22822166345874, 40.04175504330663]}, "type": "Feature", "id": 119, "properties": {"ADDRESS": "440-42 PARKER AVE", "NAME": "Kelly Park", "DISTRICT": 4, "ZIPCODE": "19128"}},{"geometry": {"type": "Point", "coordinates": [-75.10338261525214, 39.986265354154405]}, "type": "Feature", "id": 120, "properties": {"ADDRESS": "2525 E ALLEGHENY AVE", "NAME": "Campbell Square", "DISTRICT": 2, "ZIPCODE": "19134"}},{"geometry": {"type": "Point", "coordinates": [-75.18080001813011, 40.025677331539]}, "type": "Feature", "id": 121, "properties": {"ADDRESS": "5425 WISSAHICKON AVE", "NAME": "Cloverly Park", "DISTRICT": 4, "ZIPCODE": "19144"}},{"geometry": {"type": "Point", "coordinates": [-75.16899453637261, 39.961547057168225]}, "type": "Feature", "id": 122, "properties": {"ADDRESS": "423-33 N 19TH ST", "NAME": "Matthias Baldwin Park", "DISTRICT": 5, "ZIPCODE": "19130"}},{"geometry": {"type": "Point", "coordinates": [-75.16572379598946, 39.95421526869905]}, "type": "Feature", "id": 123, "properties": {"ADDRESS": "1501 JOHN F KENNEDY BLV", "NAME": "John F. Kennedy Plaza", "DISTRICT": 5, "ZIPCODE": "19102"}},{"geometry": {"type": "Point", "coordinates": [-75.09073120251213, 40.008464972862356]}, "type": "Feature", "id": 124, "properties": {"ADDRESS": "4098 FRANKFORD AVE", "NAME": "Womrath Park", "DISTRICT": 3, "ZIPCODE": "19124"}},{"geometry": {"type": "Point", "coordinates": [-75.14497783824423, 40.03619910124814]}, "type": "Feature", "id": 125, "properties": {"ADDRESS": "5401-55 N BROAD ST", "NAME": "Clarkson Park", "DISTRICT": 3, "ZIPCODE": "19141"}},{"geometry": {"type": "Point", "coordinates": [-75.1703449563781, 39.95879159134859]}, "type": "Feature", "id": 126, "properties": {"ADDRESS": "200 N 18TH ST", "NAME": "Vine Street Cover", "DISTRICT": 5, "ZIPCODE": "19103"}},{"geometry": {"type": "Point", "coordinates": [-75.14270296711541, 39.944721904332]}, "type": "Feature", "id": 127, "properties": {"ADDRESS": "109 SPRUCE ST", "NAME": "Foglietta Plaza", "DISTRICT": 5, "ZIPCODE": "19106"}},{"geometry": {"type": "Point", "coordinates": [-75.22108159209304, 40.025641014728144]}, "type": "Feature", "id": 128, "properties": {"ADDRESS": "4300 SILVERWOOD ST", "NAME": "Manayunk Park", "DISTRICT": 4, "ZIPCODE": "19127"}},{"geometry": {"type": "Point", "coordinates": [-75.17180186278624, 39.95794841057438]}, "type": "Feature", "id": 129, "properties": {"ADDRESS": "200 N 19TH ST", "NAME": "Aviator Park", "DISTRICT": 5, "ZIPCODE": "19103"}},{"geometry": {"type": "Point", "coordinates": [-75.13965756960117, 39.98574678475676]}, "type": "Feature", "id": 130, "properties": {"ADDRESS": "2301 N 04TH ST", "NAME": "Cassiano Park", "DISTRICT": 6, "ZIPCODE": "19133"}},{"geometry": {"type": "Point", "coordinates": [-75.1666248167353, 40.02200976428287]}, "type": "Feature", "id": 131, "properties": {"ADDRESS": "4712 PULASKI AVE", "NAME": "Kay Park", "DISTRICT": 4, "ZIPCODE": "19144"}},{"geometry": {"type": "Point", "coordinates": [-75.23715263762948, 39.946804086431676]}, "type": "Feature", "id": 132, "properties": {"ADDRESS": "5601 BALTIMORE AVE", "NAME": "Sherwood Park", "DISTRICT": 8, "ZIPCODE": "19143"}},{"geometry": {"type": "Point", "coordinates": [-75.16931908908035, 39.95784844586043]}, "type": "Feature", "id": 133, "properties": {"ADDRESS": "200 N 18TH ST", "NAME": "Sisters City Park", "DISTRICT": 5, "ZIPCODE": "19103"}},{"geometry": {"type": "Point", "coordinates": [-75.16857429005258, 40.03049817066964]}, "type": "Feature", "id": 134, "properties": {"ADDRESS": "5215 GREENE ST", "NAME": "Howell Park", "DISTRICT": 4, "ZIPCODE": "19144"}},{"geometry": {"type": "Point", "coordinates": [-75.14534830146944, 40.03453279809631]}, "type": "Feature", "id": 135, "properties": {"ADDRESS": "5301 N BROAD ST", "NAME": "Shevchenko Park", "DISTRICT": 3, "ZIPCODE": "19141"}},{"geometry": {"type": "Point", "coordinates": [-75.19530091314343, 40.00910094868168]}, "type": "Feature", "id": 136, "properties": {"ADDRESS": "4208-52 RIDGE AVE", "NAME": "Innyard Park", "DISTRICT": 5, "ZIPCODE": "19129"}},{"geometry": {"type": "Point", "coordinates": [-75.18753338381761, 40.05666219561769]}, "type": "Feature", "id": 137, "properties": {"ADDRESS": "6923-45 GERMANTOWN AVE", "NAME": "Lovett Park", "DISTRICT": 4, "ZIPCODE": "19119"}},{"geometry": {"type": "Point", "coordinates": [-75.16676289988987, 39.955545885265906]}, "type": "Feature", "id": 138, "properties": {"ADDRESS": "110 N 16TH ST", "NAME": "Three Parkway", "DISTRICT": 5, "ZIPCODE": "19103"}},{"geometry": {"type": "Point", "coordinates": [-75.23314477202561, 39.918702503620075]}, "type": "Feature", "id": 139, "properties": {"ADDRESS": "2528 HOBSON ST", "NAME": "Buist Park", "DISTRICT": 8, "ZIPCODE": "19142"}},{"geometry": {"type": "Point", "coordinates": [-75.22017664755566, 40.03040976599274]}, "type": "Feature", "id": 140, "properties": {"ADDRESS": "4418 MANAYUNK AVE", "NAME": "Fairview Park", "DISTRICT": 4, "ZIPCODE": "19128"}},{"geometry": {"type": "Point", "coordinates": [-75.19923822706916, 40.072660503442606]}, "type": "Feature", "id": 141, "properties": {"ADDRESS": "181-85 E WILLOW GROVE AVE", "NAME": "Winston Park", "DISTRICT": 4, "ZIPCODE": "19118"}},{"geometry": {"type": "Point", "coordinates": [-75.12793857916438, 39.97934792549658]}, "type": "Feature", "id": 142, "properties": {"ADDRESS": "2200-26 E DAUPHIN ST", "NAME": "Konrad Square", "DISTRICT": 2, "ZIPCODE": "19125"}},{"geometry": {"type": "Point", "coordinates": [-75.20305403623446, 40.06715051159961]}, "type": "Feature", "id": 143, "properties": {"ADDRESS": "7930-34 LINCOLN DR", "NAME": "Woodward Pines", "DISTRICT": 4, "ZIPCODE": "19118"}},{"geometry": {"type": "Point", "coordinates": [-75.16747972331085, 39.95523167959929]}, "type": "Feature", "id": 144, "properties": {"ADDRESS": "1619-29 ARCH ST", "NAME": "Levy Park", "DISTRICT": 5, "ZIPCODE": "19103"}},{"geometry": {"type": "Point", "coordinates": [-75.22961639733573, 39.963443284014694]}, "type": "Feature", "id": 145, "properties": {"ADDRESS": "5430-46 RACE ST", "NAME": "Nichols Park", "DISTRICT": 8, "ZIPCODE": "19139"}},{"geometry": {"type": "Point", "coordinates": [-75.01400583392792, 40.04701367897327]}, "type": "Feature", "id": 146, "properties": {"ADDRESS": "4400 PENNYPACK ST", "NAME": "Frankford & Pennypack Park", "DISTRICT": 1, "ZIPCODE": "19136"}},{"geometry": {"type": "Point", "coordinates": [-75.10890897902645, 39.982530523210016]}, "type": "Feature", "id": 147, "properties": {"ADDRESS": "2987 ALMOND ST", "NAME": "Powers Park", "DISTRICT": 2, "ZIPCODE": "19134"}},{"geometry": {"type": "Point", "coordinates": [-75.15519146391293, 39.93289570801132]}, "type": "Feature", "id": 148, "properties": {"ADDRESS": "613 WHARTON ST", "NAME": "Gold Star Park", "DISTRICT": 7, "ZIPCODE": "19147"}},{"geometry": {"type": "Point", "coordinates": [-75.16280556920717, 39.940663809531706]}, "type": "Feature", "id": 149, "properties": {"ADDRESS": "750 S 12TH ST", "NAME": "Hawthorne Park", "DISTRICT": 7, "ZIPCODE": "19147"}},{"geometry": {"type": "Point", "coordinates": [-75.16344126763221, 39.926443473176995]}, "type": "Feature", "id": 150, "properties": {"ADDRESS": "1025-33 MIFFLIN ST", "NAME": "Tolentine Community Park", "DISTRICT": 7, "ZIPCODE": "19148"}},{"geometry": {"type": "Point", "coordinates": [-75.2226778145233, 39.948223614685084]}, "type": "Feature", "id": 151, "properties": {"ADDRESS": "4917-53 BALTIMORE AVE", "NAME": "Cedar Park", "DISTRICT": 8, "ZIPCODE": "19143"}},{"geometry": {"type": "Point", "coordinates": [-75.24294526867529, 39.91008890456973]}, "type": "Feature", "id": 152, "properties": {"ADDRESS": "2604 ISLAND AVE", "NAME": "75th & Chelwynde Park", "DISTRICT": 8, "ZIPCODE": "19153"}},{"geometry": {"type": "Point", "coordinates": [-75.13253475860157, 39.97488421309102]}, "type": "Feature", "id": 153, "properties": {"ADDRESS": "1701-21 FRANKFORD AVE", "NAME": "Palmer Park", "DISTRICT": 2, "ZIPCODE": "19125"}},{"geometry": {"type": "Point", "coordinates": [-75.22160524891623, 39.95380416327046]}, "type": "Feature", "id": 154, "properties": {"ADDRESS": "4936-58 SPRUCE ST", "NAME": "Ben Barkan Park", "DISTRICT": 8, "ZIPCODE": "19143"}},{"geometry": {"type": "Point", "coordinates": [-75.17978277556637, 39.94759927112827]}, "type": "Feature", "id": 155, "properties": {"ADDRESS": "2301-23 PINE ST", "NAME": "Fitler Square", "DISTRICT": 5, "ZIPCODE": "19103"}},{"geometry": {"type": "Point", "coordinates": [-75.2319272612416, 39.983419781694785]}, "type": "Feature", "id": 156, "properties": {"ADDRESS": "5425R-65 UPLAND WAY", "NAME": "Triangle Park", "DISTRICT": 8, "ZIPCODE": "19131"}},{"geometry": {"type": "Point", "coordinates": [-75.1554032700342, 39.94069139210946]}, "type": "Feature", "id": 157, "properties": {"ADDRESS": "721 S 08TH ST", "NAME": "Cianfrani Park", "DISTRICT": 7, "ZIPCODE": "19147"}},{"geometry": {"type": "Point", "coordinates": [-75.1024790551722, 40.004114775605736]}, "type": "Feature", "id": 158, "properties": {"ADDRESS": "1321 STEINBER ST", "NAME": "Merritt Square", "DISTRICT": 3, "ZIPCODE": "19124"}},{"geometry": {"type": "Point", "coordinates": [-75.21073002611968, 40.01772696572934]}, "type": "Feature", "id": 159, "properties": {"ADDRESS": "5119 ROCHELLE AVE", "NAME": "La Noce Park", "DISTRICT": 4, "ZIPCODE": "19128"}},{"geometry": {"type": "Point", "coordinates": [-75.14727982733719, 39.93741525647675]}, "type": "Feature", "id": 160, "properties": {"ADDRESS": "214 CATHARINE ST", "NAME": "Mario Lanza Park", "DISTRICT": 7, "ZIPCODE": "19147"}},{"geometry": {"type": "Point", "coordinates": [-75.16822788755984, 39.91570210973157]}, "type": "Feature", "id": 161, "properties": {"ADDRESS": "1226 MOLLBORE TER", "NAME": "Mollbore Terrace Park", "DISTRICT": 7, "ZIPCODE": "19148"}},{"geometry": {"type": "Point", "coordinates": [-75.16855472859395, 39.95677440650404]}, "type": "Feature", "id": 162, "properties": {"ADDRESS": "1716-34 RACE ST", "NAME": "Kopernicus Triangle", "DISTRICT": 5, "ZIPCODE": "19103"}},{"geometry": {"type": "Point", "coordinates": [-75.14661769287757, 39.99934738166813]}, "type": "Feature", "id": 163, "properties": {"ADDRESS": "1000 W GLENWOOD AVE", "NAME": "Ross Park", "DISTRICT": 3, "ZIPCODE": "19133"}},{"geometry": {"type": "Point", "coordinates": [-75.15655660806274, 39.921258440616064]}, "type": "Feature", "id": 164, "properties": {"ADDRESS": "2201-09 S 06TH ST", "NAME": "Weinberg Park", "DISTRICT": 7, "ZIPCODE": "19148"}},{"geometry": {"type": "Point", "coordinates": [-75.16002756574251, 39.94516544544014]}, "type": "Feature", "id": 165, "properties": {"ADDRESS": "328-38 S 11TH ST", "NAME": "Louis Kahn Park", "DISTRICT": 5, "ZIPCODE": "19107"}}]}